{"type":"FeatureCollection","features":[{"type":"Feature","geometry":{"type":"Point","coordinates":[-3.188126,55.943793]},"properties":{"location":"cubs.trucks.help","rgb-string":"#40ff00","marker-color":"#40ff00","marker-symbol":"lighthouse"}},{"type":"Feature","geometry":{"type":"Point","coordinates":[-3.188849,55.943658]},"properties":{"location":"labels.hotels.alert","rgb-string":"#00ff00","marker-color":"#00ff00","marker-symbol":"lighthouse"}},{"type":"Feature","geometry":{"type":"Point","coordinates":[-3.190438,55.943982]},"properties":{"location":"pump.wheels.hulk","rgb-string":"#40ff00","marker-color":"#40ff00","marker-symbol":"lighthouse"}},{"type":"Feature","geometry":{"type":"Point","coordinates":[-3.191113,55.943901]},"properties":{"location":"spicy.bunch.shady","rgb-string":"#40ff00","marker-color":"#40ff00","marker-symbol":"lighthouse"}},{"type":"Feature","geometry":{"type":"Point","coordinates":[-3.191113,55.943631]},"properties":{"location":"loaf.cheer.slave","rgb-string":"#00ff00","marker-color":"#00ff00","marker-symbol":"lighthouse"}},{"type":"Feature","geometry":{"type":"Point","coordinates":[-3.191161,55.943065]},"properties":{"location":"else.urban.museum","rgb-string":"#00ff00","marker-color":"#00ff00","marker-symbol":"lighthouse"}},{"type":"Feature","geometry":{"type":"Point","coordinates":[-3.191161,55.942742]},"properties":{"location":"along.spill.limp","rgb-string":"#00ff00","marker-color":"#00ff00","marker-symbol":"lighthouse"}},{"type":"Feature","geometry":{"type":"Point","coordinates":[-3.190053,55.943173]},"properties":{"location":"shows.fries.lamp","rgb-string":"#40ff00","marker-color":"#40ff00","marker-symbol":"lighthouse"}},{"type":"Feature","geometry":{"type":"Point","coordinates":[-3.189764,55.942661]},"properties":{"location":"hooked.shine.third","rgb-string":"#00ff00","marker-color":"#00ff00","marker-symbol":"lighthouse"}},{"type":"Feature","geometry":{"type":"Point","coordinates":[-3.189379,55.943281]},"properties":{"location":"rents.cone.stove","rgb-string":"#40ff00","marker-color":"#40ff00","marker-symbol":"lighthouse"}},{"type":"Feature","geometry":{"type":"Point","coordinates":[-3.188608,55.943119]},"properties":{"location":"groups.ideas.script","rgb-string":"#80ff00","marker-color":"#80ff00","marker-symbol":"lighthouse"}},{"type":"Feature","geometry":{"type":"Point","coordinates":[-3.187355,55.943604]},"properties":{"location":"shut.stands.media","rgb-string":"#80ff00","marker-color":"#80ff00","marker-symbol":"lighthouse"}},{"type":"Feature","geometry":{"type":"Point","coordinates":[-3.187211,55.943335]},"properties":{"location":"scale.chair.kinds","rgb-string":"#000000","marker-color":"#000000","marker-symbol":"cross"}},{"type":"Feature","geometry":{"type":"Point","coordinates":[-3.186248,55.942796]},"properties":{"location":"under.retire.bump","rgb-string":"#ff8000","marker-color":"#ff8000","marker-symbol":"danger"}},{"type":"Feature","geometry":{"type":"Point","coordinates":[-3.185621,55.943065]},"properties":{"location":"toned.deflection.bland","rgb-string":"#ff8000","marker-color":"#ff8000","marker-symbol":"danger"}},{"type":"Feature","geometry":{"type":"Point","coordinates":[-3.18567,55.944359]},"properties":{"location":"atoms.vanish.foods","rgb-string":"#ff8000","marker-color":"#ff8000","marker-symbol":"danger"}},{"type":"Feature","geometry":{"type":"Point","coordinates":[-3.184513,55.945302]},"properties":{"location":"settle.title.united","rgb-string":"#ff4000","marker-color":"#ff4000","marker-symbol":"danger"}},{"type":"Feature","geometry":{"type":"Point","coordinates":[-3.185332,55.946138]},"properties":{"location":"prime.rent.silk","rgb-string":"#ff8000","marker-color":"#ff8000","marker-symbol":"danger"}},{"type":"Feature","geometry":{"type":"Point","coordinates":[-3.185814,55.94603]},"properties":{"location":"renew.slows.basket","rgb-string":"#ff8000","marker-color":"#ff8000","marker-symbol":"danger"}},{"type":"Feature","geometry":{"type":"Point","coordinates":[-3.186537,55.944925]},"properties":{"location":"laws.merit.bleak","rgb-string":"#ff4000","marker-color":"#ff4000","marker-symbol":"danger"}},{"type":"Feature","geometry":{"type":"Point","coordinates":[-3.186777,55.944575]},"properties":{"location":"artist.gets.react","rgb-string":"#ffc000","marker-color":"#ffc000","marker-symbol":"danger"}},{"type":"Feature","geometry":{"type":"Point","coordinates":[-3.188319,55.945518]},"properties":{"location":"skills.less.herb","rgb-string":"#ff0000","marker-color":"#ff0000","marker-symbol":"danger"}},{"type":"Feature","geometry":{"type":"Point","coordinates":[-3.188463,55.945761]},"properties":{"location":"bend.tubes.chops","rgb-string":"#ff8000","marker-color":"#ff8000","marker-symbol":"danger"}},{"type":"Feature","geometry":{"type":"Point","coordinates":[-3.18856,55.946057]},"properties":{"location":"boost.radar.stress","rgb-string":"#ffc000","marker-color":"#ffc000","marker-symbol":"danger"}},{"type":"Feature","geometry":{"type":"Point","coordinates":[-3.188801,55.945437]},"properties":{"location":"shady.soft.phones","rgb-string":"#ffc000","marker-color":"#ffc000","marker-symbol":"danger"}},{"type":"Feature","geometry":{"type":"Point","coordinates":[-3.18933,55.945653]},"properties":{"location":"museum.spicy.horns","rgb-string":"#ff8000","marker-color":"#ff8000","marker-symbol":"danger"}},{"type":"Feature","geometry":{"type":"Point","coordinates":[-3.189379,55.945949]},"properties":{"location":"coherent.saints.stuck","rgb-string":"#ff8000","marker-color":"#ff8000","marker-symbol":"danger"}},{"type":"Feature","geometry":{"type":"Point","coordinates":[-3.189957,55.94603]},"properties":{"location":"love.behind.orchestra","rgb-string":"#ff8000","marker-color":"#ff8000","marker-symbol":"danger"}},{"type":"Feature","geometry":{"type":"Point","coordinates":[-3.190438,55.945383]},"properties":{"location":"jump.crop.fits","rgb-string":"#ff8000","marker-color":"#ff8000","marker-symbol":"danger"}},{"type":"Feature","geometry":{"type":"Point","coordinates":[-3.191065,55.944709]},"properties":{"location":"estate.gave.votes","rgb-string":"#80ff00","marker-color":"#80ff00","marker-symbol":"lighthouse"}},{"type":"Feature","geometry":{"type":"Point","coordinates":[-3.191016,55.944979]},"properties":{"location":"shapes.sheep.nature","rgb-string":"#ffc000","marker-color":"#ffc000","marker-symbol":"danger"}},{"type":"Feature","geometry":{"type":"Point","coordinates":[-3.191016,55.945248]},"properties":{"location":"maple.limit.hotels","rgb-string":"#ffc000","marker-color":"#ffc000","marker-symbol":"danger"}},{"type":"Feature","geometry":{"type":"Point","coordinates":[-3.191883,55.946003]},"properties":{"location":"stone.undulation.poems","rgb-string":"#000000","marker-color":"#000000","marker-symbol":"cross"}},{"type":"Feature","geometry":{"type":"LineString","coordinates":[[-3.1878,55.9444],[-3.18795,55.9441402],[-3.1881,55.9438804],[-3.1883819,55.9437778],[-3.1886774,55.9437257],[-3.1889728,55.9437778],[-3.1892682,55.9438299],[-3.1895637,55.943882],[-3.1898591,55.9439341],[-3.1901591,55.9439341],[-3.1904546,55.9439862],[-3.19075,55.9439341],[-3.1910454,55.943882],[-3.1911481,55.9436001],[-3.1911481,55.9433001],[-3.1911481,55.9430001],[-3.1911481,55.9427001],[-3.1908661,55.9428027],[-3.1905842,55.9429053],[-3.1903244,55.9430553],[-3.1900425,55.9431579],[-3.1898925,55.9428981],[-3.1897425,55.9426383],[-3.1896904,55.9429337],[-3.1894976,55.9431635],[-3.1891976,55.9431635],[-3.1888976,55.9431635],[-3.1886021,55.9431114],[-3.1883202,55.943214],[-3.1880383,55.9433166],[-3.1877564,55.9434192],[-3.1874745,55.9435218],[-3.1872447,55.943329],[-3.1869849,55.943179],[-3.1867251,55.943029],[-3.1864653,55.942879],[-3.1861834,55.9427764],[-3.1859236,55.9429264],[-3.1856417,55.943029],[-3.1856417,55.943329],[-3.1856417,55.943629],[-3.1856417,55.943929],[-3.1856417,55.944229],[-3.1854118,55.9444218],[-3.185182,55.9446147],[-3.1849892,55.9448445],[-3.1847594,55.9450373],[-3.1845665,55.9452671],[-3.1847594,55.945497],[-3.1849522,55.9457268],[-3.1851451,55.9459566],[-3.1853749,55.9461494],[-3.1856568,55.9460468],[-3.1858496,55.945817],[-3.1860424,55.9455872],[-3.1862353,55.9453574],[-3.1863853,55.9450976],[-3.1865353,55.9448378],[-3.1867281,55.9446079],[-3.1870236,55.94466],[-3.187319,55.9446079],[-3.1876144,55.9445559],[-3.1878073,55.9447857],[-3.1879573,55.9450455],[-3.1881501,55.9452753],[-3.1883001,55.9455351],[-3.188493,55.9457649],[-3.1885451,55.9460604],[-3.1886477,55.9457784],[-3.1887503,55.9454965],[-3.1890322,55.9455991],[-3.1893276,55.9456512],[-3.1893797,55.9459467],[-3.1896751,55.9459988],[-3.1899706,55.9460509],[-3.1901206,55.9457911],[-3.1903134,55.9455612],[-3.1904634,55.9453014],[-3.1906932,55.9451086],[-3.1908861,55.9448788],[-3.1911159,55.944686],[-3.1910133,55.9449679],[-3.1910133,55.9452679],[-3.1912431,55.9454607],[-3.1914729,55.9456535],[-3.1917027,55.9458464],[-3.1919325,55.9460392],[-3.1916506,55.9459366],[-3.1913687,55.945834],[-3.1910868,55.9457314],[-3.1908049,55.9456288],[-3.190523,55.9455262],[-3.1902411,55.9454236],[-3.1899592,55.945321],[-3.1896773,55.9452184],[-3.1893954,55.9451158],[-3.1891135,55.9450131],[-3.1888537,55.9448631],[-3.1885717,55.9447605],[-3.1883119,55.9446105],[-3.18803,55.9445079],[-3.1877702,55.9443579]]},"properties":{}}]}